{ 
    "stations" : [
        {
            "activate" : 1, 
            "name" : "Puerta del Sol A", 
            "reservations_count" : 0, 
            "light" : 2, 
            "total_bases" : 24, 
            "free_bases" : 10, 
            "number" : "1a", 
            "longitude" : "-3.7024255", 
            "no_available" : 0, 
            "address" : "Puerta del Sol n∫ 1", 
            "latitude" : "40.4168961", 
            "dock_bikes" : 14, 
            "id" : 1
        }, 
        {
            "activate" : 1, 
            "name" : "Puerta del Sol B", 
            "reservations_count" : 0, 
            "light" : 2, 
            "total_bases" : 24, 
            "free_bases" : 15, 
            "number" : "1b", 
            "longitude" : "-3.7024207", 
            "no_available" : 0, 
            "address" : "Puerta del Sol n∫ 1", 
            "latitude" : "40.4170009", 
            "dock_bikes" : 9, 
            "id" : 2
        }, 
        {
            "activate" : 1, 
            "name" : "Miguel Moya", 
            "reservations_count" : 0, 
            "light" : 2, 
            "total_bases" : 24, 
            "free_bases" : 12, 
            "number" : "2", 
            "longitude" : "-3.7058415", 
            "no_available" : 0, 
            "address" : "Calle Miguel Moya n∫ 1", 
            "latitude" : "40.4205886", 
            "dock_bikes" : 10, 
            "id" : 3
        }, 
        {
            "activate" : 1, 
            "name" : "Plaza Conde Suchil", 
            "reservations_count" : 0, 
            "light" : 2, 
            "total_bases" : 18, 
            "free_bases" : 7, 
            "number" : "3", 
            "longitude" : "-3.7069171", 
            "no_available" : 0, 
            "address" : "Plaza del Conde Suchil n∫ 2-4", 
            "latitude" : "40.4302937", 
            "dock_bikes" : 11, 
            "id" : 4
        }, 
        {
            "activate" : 1, 
            "name" : "MalasaÒa", 
            "reservations_count" : 0, 
            "light" : 2, 
            "total_bases" : 24, 
            "free_bases" : 8, 
            "number" : "4", 
            "longitude" : "-3.7025875", 
            "no_available" : 0, 
            "address" : "Calle Manuela MalasaÒa n∫ 5", 
            "latitude" : "40.4285524", 
            "dock_bikes" : 16, 
            "id" : 5
        }, 
        {
            "activate" : 1, 
            "name" : "Fuencarral", 
            "reservations_count" : 0, 
            "light" : 2, 
            "total_bases" : 27, 
            "free_bases" : 12, 
            "number" : "5", 
            "longitude" : "-3.7020599", 
            "no_available" : 0, 
            "address" : "Calle Fuencarral n∫ 108", 
            "latitude" : "40.4285280", 
            "dock_bikes" : 13, 
            "id" : 6
        }, 
        {
            "activate" : 1, 
            "name" : "Colegio Arquitectos", 
            "reservations_count" : 0, 
            "light" : 0, 
            "total_bases" : 24, 
            "free_bases" : 22, 
            "number" : "6", 
            "longitude" : "-3.6984470", 
            "no_available" : 0, 
            "address" : "Calle Hortaleza n∫ 63", 
            "latitude" : "40.4241480", 
            "dock_bikes" : 1, 
            "id" : 7
        }, 
        {
            "activate" : 1, 
            "name" : "Hortaleza", 
            "reservations_count" : 0, 
            "light" : 1, 
            "total_bases" : 21, 
            "free_bases" : 6, 
            "number" : "7", 
            "longitude" : "-3.6977715", 
            "no_available" : 0, 
            "address" : "Calle Hortaleza n∫ 75", 
            "latitude" : "40.4251906", 
            "dock_bikes" : 14, 
            "id" : 8
        }, 
        {
            "activate" : 1, 
            "name" : "Alonso MartÌnez", 
            "reservations_count" : 0, 
            "light" : 2, 
            "total_bases" : 24, 
            "free_bases" : 8, 
            "number" : "8", 
            "longitude" : "-3.6954403", 
            "no_available" : 0, 
            "address" : "Plaza de Alonso MartÌnez n∫ 5", 
            "latitude" : "40.4278682", 
            "dock_bikes" : 14, 
            "id" : 9
        }, 
        {
            "activate" : 1, 
            "name" : "Plaza de San Miguel", 
            "reservations_count" : 0, 
            "light" : 0, 
            "total_bases" : 24, 
            "free_bases" : 16, 
            "number" : "9", 
            "longitude" : "-3.7095084", 
            "no_available" : 0, 
            "address" : "Plaza de San Miguel n∫ 9", 
            "latitude" : "40.4156057", 
            "dock_bikes" : 7, 
            "id" : 10
        }, 
        {
            "activate" : 1, 
            "name" : "MarquÈs de la Ensenada", 
            "reservations_count" : 0, 
            "light" : 2, 
            "total_bases" : 24, 
            "free_bases" : 13, 
            "number" : "10", 
            "longitude" : "-3.6918807", 
            "no_available" : 0, 
            "address" : "Calle MarquÈs de la Ensenada n∫ 16", 
            "latitude" : "40.4250863", 
            "dock_bikes" : 11, 
            "id" : 11
        }, 
        {
            "activate" : 1, 
            "name" : "San AndrÈs", 
            "reservations_count" : 0, 
            "light" : 1, 
            "total_bases" : 24, 
            "free_bases" : 5, 
            "number" : "11", 
            "longitude" : "-3.7035918", 
            "no_available" : 0, 
            "address" : "Calle San AndrÈs n∫ 18", 
            "latitude" : "40.4269483", 
            "dock_bikes" : 18, 
            "id" : 12
        }, 
        {
            "activate" : 1, 
            "name" : "San Hermenegildo", 
            "reservations_count" : 0, 
            "light" : 2, 
            "total_bases" : 24, 
            "free_bases" : 11, 
            "number" : "12", 
            "longitude" : "-3.7061931", 
            "no_available" : 0, 
            "address" : "Calle San Bernardo n∫ 85", 
            "latitude" : "40.4284246", 
            "dock_bikes" : 13, 
            "id" : 13
        }, 
        {
            "activate" : 1, 
            "name" : "Conde Duque", 
            "reservations_count" : 0, 
            "light" : 2, 
            "total_bases" : 24, 
            "free_bases" : 11, 
            "number" : "13", 
            "longitude" : "-3.7104417", 
            "no_available" : 0, 
            "address" : "Calle Conde Duque n∫ 22", 
            "latitude" : "40.4273264", 
            "dock_bikes" : 12, 
            "id" : 14
        }, 
        {
            "activate" : 1, 
            "name" : "Ventura RodrÌguez", 
            "reservations_count" : 0, 
            "light" : 0, 
            "total_bases" : 24, 
            "free_bases" : 21, 
            "number" : "14", 
            "longitude" : "-3.7134790", 
            "no_available" : 0, 
            "address" : "Calle Ventura RodrÌguez n∫ 2", 
            "latitude" : "40.4260957", 
            "dock_bikes" : 3, 
            "id" : 15
        }, 
        {
            "activate" : 1, 
            "name" : "San Vicente Ferrer", 
            "reservations_count" : 0, 
            "light" : 2, 
            "total_bases" : 21, 
            "free_bases" : 11, 
            "number" : "15", 
            "longitude" : "-3.7073764", 
            "no_available" : 0, 
            "address" : "Calle San Vicente Ferrer n∫ 64", 
            "latitude" : "40.4261649", 
            "dock_bikes" : 10, 
            "id" : 16
        }, 
        {
            "activate" : 1, 
            "name" : "San Bernardo", 
            "reservations_count" : 0, 
            "light" : 1, 
            "total_bases" : 21, 
            "free_bases" : 1, 
            "number" : "16", 
            "longitude" : "-3.7075065", 
            "no_available" : 0, 
            "address" : "Calle San Bernardo n∫ 22", 
            "latitude" : "40.4230721", 
            "dock_bikes" : 20, 
            "id" : 17
        }, 
        {
            "activate" : 1, 
            "name" : "Carlos Cambronero", 
            "reservations_count" : 0, 
            "light" : 2, 
            "total_bases" : 24, 
            "free_bases" : 12, 
            "number" : "17", 
            "longitude" : "-3.7038312", 
            "no_available" : 0, 
            "address" : "Plaza de Carlos Cambronero n∫ 2", 
            "latitude" : "40.4232649", 
            "dock_bikes" : 9, 
            "id" : 18
        }, 
        {
            "activate" : 1, 
            "name" : "Plaza de Pedro Zerolo", 
            "reservations_count" : 0, 
            "light" : 1, 
            "total_bases" : 24, 
            "free_bases" : 3, 
            "number" : "18", 
            "longitude" : "-3.6996502", 
            "no_available" : 0, 
            "address" : "Plaza de Pedro Zerolo", 
            "latitude" : "40.4207773", 
            "dock_bikes" : 18, 
            "id" : 19
        }, 
        {
            "activate" : 1, 
            "name" : "Prim", 
            "reservations_count" : 0, 
            "light" : 0, 
            "total_bases" : 24, 
            "free_bases" : 19, 
            "number" : "19", 
            "longitude" : "-3.6954983", 
            "no_available" : 0, 
            "address" : "Calle Prim n∫ 2", 
            "latitude" : "40.4218616", 
            "dock_bikes" : 3, 
            "id" : 20
        }, 
        {
            "activate" : 1, 
            "name" : "Banco de EspaÒa A", 
            "reservations_count" : 0, 
            "light" : 1, 
            "total_bases" : 24, 
            "free_bases" : 5, 
            "number" : "20a", 
            "longitude" : "-3.6954615", 
            "no_available" : 0, 
            "address" : "Calle Alcal· n∫ 49", 
            "latitude" : "40.4192342", 
            "dock_bikes" : 17, 
            "id" : 21
        }, 
        {
            "activate" : 1, 
            "name" : "Red de San Luis A", 
            "reservations_count" : 0, 
            "light" : 3, 
            "total_bases" : 24, 
            "free_bases" : 10, 
            "number" : "21a", 
            "longitude" : "-3.7014814", 
            "no_available" : 1, 
            "address" : "Calle Montera n∫ 48", 
            "latitude" : "40.4197872", 
            "dock_bikes" : 0, 
            "id" : 23
        }, 
        {
            "activate" : 1, 
            "name" : "Red de San Luis B", 
            "reservations_count" : 0, 
            "light" : 3, 
            "total_bases" : 24, 
            "free_bases" : 0, 
            "number" : "21b", 
            "longitude" : "-3.7015235", 
            "no_available" : 1, 
            "address" : "Calle Montera n∫ 47", 
            "latitude" : "40.4197204", 
            "dock_bikes" : 0, 
            "id" : 24
        }, 
        {
            "activate" : 1, 
            "name" : "Jacometrezo", 
            "reservations_count" : 0, 
            "light" : 1, 
            "total_bases" : 24, 
            "free_bases" : 4, 
            "number" : "22", 
            "longitude" : "-3.7065376", 
            "no_available" : 0, 
            "address" : "Calle Jacometrezo n∫ 3", 
            "latitude" : "40.4200783", 
            "dock_bikes" : 19, 
            "id" : 25
        }, 
        {
            "activate" : 1, 
            "name" : "Santo Domingo", 
            "reservations_count" : 0, 
            "light" : 2, 
            "total_bases" : 24, 
            "free_bases" : 7, 
            "number" : "23", 
            "longitude" : "-3.7080733", 
            "no_available" : 0, 
            "address" : "Plaza de Santo Domingo n∫ 1", 
            "latitude" : "40.4197429", 
            "dock_bikes" : 15, 
            "id" : 26
        }, 
        {
            "activate" : 1, 
            "name" : "Palacio de Oriente", 
            "reservations_count" : 0, 
            "light" : 0, 
            "total_bases" : 24, 
            "free_bases" : 18, 
            "number" : "24", 
            "longitude" : "-3.7103538", 
            "no_available" : 0, 
            "address" : "Calle Carlos III n∫ 1", 
            "latitude" : "40.4182146", 
            "dock_bikes" : 5, 
            "id" : 27
        }, 
        {
            "activate" : 1, 
            "name" : "Plaza de Celenque A", 
            "reservations_count" : 0, 
            "light" : 2, 
            "total_bases" : 24, 
            "free_bases" : 9, 
            "number" : "25a", 
            "longitude" : "-3.7064809", 
            "no_available" : 0, 
            "address" : "Plaza de Celenque n∫ 1", 
            "latitude" : "40.4173114", 
            "dock_bikes" : 13, 
            "id" : 28
        }, 
        {
            "activate" : 1, 
            "name" : "Plaza de Celenque B", 
            "reservations_count" : 0, 
            "light" : 2, 
            "total_bases" : 24, 
            "free_bases" : 10, 
            "number" : "25b", 
            "longitude" : "-3.7063837", 
            "no_available" : 0, 
            "address" : "Plaza de Celenque n∫ 1", 
            "latitude" : "40.4172781", 
            "dock_bikes" : 13, 
            "id" : 29
        }, 
        {
            "activate" : 1, 
            "name" : "Plaza de las Salesas", 
            "reservations_count" : 0, 
            "light" : 0, 
            "total_bases" : 24, 
            "free_bases" : 19, 
            "number" : "26", 
            "longitude" : "-3.694475", 
            "no_available" : 0, 
            "address" : "Plaza de las Salesas 7", 
            "latitude" : "40.423855", 
            "dock_bikes" : 4, 
            "id" : 30
        }, 
        {
            "activate" : 1, 
            "name" : "Huertas", 
            "reservations_count" : 0, 
            "light" : 0, 
            "total_bases" : 24, 
            "free_bases" : 15, 
            "number" : "27", 
            "longitude" : "-3.6956178", 
            "no_available" : 0, 
            "address" : "Calle Jes˙s n∫ 1", 
            "latitude" : "40.4132798", 
            "dock_bikes" : 6, 
            "id" : 31
        }, 
        {
            "activate" : 1, 
            "name" : "Sevilla", 
            "reservations_count" : 0, 
            "light" : 2, 
            "total_bases" : 24, 
            "free_bases" : 15, 
            "number" : "28", 
            "longitude" : "-3.6992600", 
            "no_available" : 0, 
            "address" : "Calle Alcal· n∫ 27", 
            "latitude" : "40.4181663", 
            "dock_bikes" : 7, 
            "id" : 32
        }, 
        {
            "activate" : 1, 
            "name" : "MarquÈs de Cubas", 
            "reservations_count" : 0, 
            "light" : 0, 
            "total_bases" : 24, 
            "free_bases" : 19, 
            "number" : "29", 
            "longitude" : "-3.6957355", 
            "no_available" : 0, 
            "address" : "Calle del MarquÈs de Cubas n∫ 25", 
            "latitude" : "40.4162619", 
            "dock_bikes" : 2, 
            "id" : 33
        }, 
        {
            "activate" : 1, 
            "name" : "San QuintÌn", 
            "reservations_count" : 0, 
            "light" : 0, 
            "total_bases" : 27, 
            "free_bases" : 21, 
            "number" : "30", 
            "longitude" : "-3.7115040", 
            "no_available" : 0, 
            "address" : "Calle PavÌa n∫ 6", 
            "latitude" : "40.4192095", 
            "dock_bikes" : 4, 
            "id" : 34
        }, 
        {
            "activate" : 1, 
            "name" : "Calle Mayor", 
            "reservations_count" : 0, 
            "light" : 0, 
            "total_bases" : 27, 
            "free_bases" : 22, 
            "number" : "31", 
            "longitude" : "-3.7068969", 
            "no_available" : 0, 
            "address" : "Calle Mayor n∫ 20", 
            "latitude" : "40.4163638", 
            "dock_bikes" : 5, 
            "id" : 35
        }, 
        {
            "activate" : 1, 
            "name" : "Plaza de la Provincia", 
            "reservations_count" : 0, 
            "light" : 1, 
            "total_bases" : 18, 
            "free_bases" : 2, 
            "number" : "32", 
            "longitude" : "-3.7061032", 
            "no_available" : 0, 
            "address" : "Plaza de la Provincia n∫ 1", 
            "latitude" : "40.4150099", 
            "dock_bikes" : 15, 
            "id" : 36
        }, 
        {
            "activate" : 1, 
            "name" : "Carretas", 
            "reservations_count" : 0, 
            "light" : 2, 
            "total_bases" : 24, 
            "free_bases" : 8, 
            "number" : "33", 
            "longitude" : "-3.7031808", 
            "no_available" : 0, 
            "address" : "Calle Carretas n∫ 8", 
            "latitude" : "40.4157138", 
            "dock_bikes" : 15, 
            "id" : 37
        }, 
        {
            "activate" : 1, 
            "name" : "Jacinto Benavente", 
            "reservations_count" : 0, 
            "light" : 0, 
            "total_bases" : 24, 
            "free_bases" : 17, 
            "number" : "34", 
            "longitude" : "-3.7036825", 
            "no_available" : 0, 
            "address" : "Plaza de Jacinto Benavente", 
            "latitude" : "40.4146755", 
            "dock_bikes" : 5, 
            "id" : 38
        }, 
        {
            "activate" : 1, 
            "name" : "Plaza del CordÛn", 
            "reservations_count" : 0, 
            "light" : 0, 
            "total_bases" : 24, 
            "free_bases" : 20, 
            "number" : "35", 
            "longitude" : "-3.7103285", 
            "no_available" : 0, 
            "address" : "Plaza del CordÛn n∫ 1", 
            "latitude" : "40.4141931", 
            "dock_bikes" : 2, 
            "id" : 39
        }, 
        {
            "activate" : 1, 
            "name" : "Plaza de Ramales", 
            "reservations_count" : 0, 
            "light" : 0, 
            "total_bases" : 24, 
            "free_bases" : 18, 
            "number" : "36", 
            "longitude" : "-3.7124038", 
            "no_available" : 0, 
            "address" : "Plaza de Ramales n∫ 1", 
            "latitude" : "40.4167281", 
            "dock_bikes" : 5, 
            "id" : 40
        }, 
        {
            "activate" : 1, 
            "name" : "Plaza San Francisco", 
            "reservations_count" : 0, 
            "light" : 2, 
            "total_bases" : 24, 
            "free_bases" : 11, 
            "number" : "37", 
            "longitude" : "-3.7144964", 
            "no_available" : 0, 
            "address" : "Plaza de San Francisco n∫ 5", 
            "latitude" : "40.4108442", 
            "dock_bikes" : 13, 
            "id" : 41
        }, 
        {
            "activate" : 1, 
            "name" : "Plaza de los Carros", 
            "reservations_count" : 1, 
            "light" : 2, 
            "total_bases" : 24, 
            "free_bases" : 13, 
            "number" : "38", 
            "longitude" : "-3.7120734", 
            "no_available" : 0, 
            "address" : "Carrera de San Francisco n∫ 1", 
            "latitude" : "40.4110406", 
            "dock_bikes" : 10, 
            "id" : 42
        }, 
        {
            "activate" : 1, 
            "name" : "Plaza de la Cebada", 
            "reservations_count" : 0, 
            "light" : 2, 
            "total_bases" : 27, 
            "free_bases" : 15, 
            "number" : "39", 
            "longitude" : "-3.7088337", 
            "no_available" : 0, 
            "address" : "Plaza de la Cebada n∫ 16 ", 
            "latitude" : "40.4112744", 
            "dock_bikes" : 11, 
            "id" : 43
        }, 
        {
            "activate" : 1, 
            "name" : "Conde de Romanones", 
            "reservations_count" : 0, 
            "light" : 0, 
            "total_bases" : 24, 
            "free_bases" : 20, 
            "number" : "40", 
            "longitude" : "-3.7049407", 
            "no_available" : 0, 
            "address" : "Plaza del Conde de Romanones n∫ 9", 
            "latitude" : "40.4138846", 
            "dock_bikes" : 2, 
            "id" : 44
        }, 
        {
            "activate" : 1, 
            "name" : "AntÛn MartÌn", 
            "reservations_count" : 0, 
            "light" : 2, 
            "total_bases" : 21, 
            "free_bases" : 10, 
            "number" : "41", 
            "longitude" : "-3.6991147", 
            "no_available" : 0, 
            "address" : "Calle Atocha n∫ 54", 
            "latitude" : "40.4122047", 
            "dock_bikes" : 11, 
            "id" : 45
        }, 
        {
            "activate" : 1, 
            "name" : "Santa Isabel", 
            "reservations_count" : 0, 
            "light" : 0, 
            "total_bases" : 24, 
            "free_bases" : 18, 
            "number" : "42", 
            "longitude" : "-3.6982318", 
            "no_available" : 0, 
            "address" : "Calle Atocha n∫ 32", 
            "latitude" : "40.4107085", 
            "dock_bikes" : 6, 
            "id" : 46
        }, 
        {
            "activate" : 1, 
            "name" : "Jes˙s y MarÌa", 
            "reservations_count" : 0, 
            "light" : 0, 
            "total_bases" : 24, 
            "free_bases" : 17, 
            "number" : "43", 
            "longitude" : "-3.7025024", 
            "no_available" : 0, 
            "address" : "Calle LavapiÈs n∫ 34-36", 
            "latitude" : "40.4101564", 
            "dock_bikes" : 6, 
            "id" : 47
        }, 
        {
            "activate" : 1, 
            "name" : "Plaza de Nelson Mandela", 
            "reservations_count" : 0, 
            "light" : 0, 
            "total_bases" : 21, 
            "free_bases" : 18, 
            "number" : "44", 
            "longitude" : "-3.7040666", 
            "no_available" : 0, 
            "address" : "Calle MesÛn de Paredes n∫ 35", 
            "latitude" : "40.4097617", 
            "dock_bikes" : 2, 
            "id" : 48
        }, 
        {
            "activate" : 1, 
            "name" : "Puerta de Toledo", 
            "reservations_count" : 0, 
            "light" : 0, 
            "total_bases" : 21, 
            "free_bases" : 13, 
            "number" : "45", 
            "longitude" : "-3.7110513", 
            "no_available" : 0, 
            "address" : "Glorieta de la Puerta de Toledo n∫ 1", 
            "latitude" : "40.4070358", 
            "dock_bikes" : 5, 
            "id" : 49
        }, 
        {
            "activate" : 1, 
            "name" : "Ribera de Curtidores", 
            "reservations_count" : 0, 
            "light" : 0, 
            "total_bases" : 24, 
            "free_bases" : 16, 
            "number" : "46", 
            "longitude" : "-3.7071259", 
            "no_available" : 0, 
            "address" : "Calle Ribera de Curtidores n∫ 28", 
            "latitude" : "40.4053153", 
            "dock_bikes" : 7, 
            "id" : 50
        }, 
        {
            "activate" : 1, 
            "name" : "Embajadores 1", 
            "reservations_count" : 0, 
            "light" : 0, 
            "total_bases" : 24, 
            "free_bases" : 18, 
            "number" : "47", 
            "longitude" : "-3.7028265", 
            "no_available" : 0, 
            "address" : "Glorieta de Embajadores n∫ 6", 
            "latitude" : "40.4047851", 
            "dock_bikes" : 6, 
            "id" : 51
        }, 
        {
            "activate" : 1, 
            "name" : "Embajadores 2", 
            "reservations_count" : 0, 
            "light" : 0, 
            "total_bases" : 24, 
            "free_bases" : 19, 
            "number" : "48", 
            "longitude" : "-3.7022591", 
            "no_available" : 0, 
            "address" : "Glorieta de Embajadores n∫ 2", 
            "latitude" : "40.4056107", 
            "dock_bikes" : 5, 
            "id" : 52
        }, 
        {
            "activate" : 1, 
            "name" : "Casa Encendida", 
            "reservations_count" : 0, 
            "light" : 0, 
            "total_bases" : 24, 
            "free_bases" : 17, 
            "number" : "49", 
            "longitude" : "-3.6992759", 
            "no_available" : 0, 
            "address" : "Ronda de Atocha n∫ 34", 
            "latitude" : "40.4060941", 
            "dock_bikes" : 7, 
            "id" : 53
        }, 
        {
            "activate" : 1, 
            "name" : "Museo Reina SofÌa", 
            "reservations_count" : 0, 
            "light" : 2, 
            "total_bases" : 24, 
            "free_bases" : 14, 
            "number" : "50", 
            "longitude" : "-3.6933463", 
            "no_available" : 0, 
            "address" : "Calle Santa Isabel n∫ 57", 
            "latitude" : "40.4083684", 
            "dock_bikes" : 10, 
            "id" : 54
        }, 
        {
            "activate" : 1, 
            "name" : "Ronda de Atocha", 
            "reservations_count" : 0, 
            "light" : 0, 
            "total_bases" : 27, 
            "free_bases" : 22, 
            "number" : "51", 
            "longitude" : "-3.6935205", 
            "no_available" : 0, 
            "address" : "Ronda de Atocha n∫ 2", 
            "latitude" : "40.4075606", 
            "dock_bikes" : 5, 
            "id" : 55
        }, 
        {
            "activate" : 1, 
            "name" : "Plaza de Santa Ana", 
            "reservations_count" : 0, 
            "light" : 2, 
            "total_bases" : 24, 
            "free_bases" : 11, 
            "number" : "52", 
            "longitude" : "-3.7007164", 
            "no_available" : 0, 
            "address" : "Plaza de Santa Ana n∫ 10", 
            "latitude" : "40.4144226", 
            "dock_bikes" : 12, 
            "id" : 56
        }, 
        {
            "activate" : 1, 
            "name" : "Plaza de LavapiÈs", 
            "reservations_count" : 0, 
            "light" : 0, 
            "total_bases" : 24, 
            "free_bases" : 16, 
            "number" : "53", 
            "longitude" : "-3.7008803", 
            "no_available" : 0, 
            "address" : "Calle Valencia n∫ 1", 
            "latitude" : "40.4089282", 
            "dock_bikes" : 6, 
            "id" : 57
        }, 
        {
            "activate" : 1, 
            "name" : "BarcelÛ", 
            "reservations_count" : 0, 
            "light" : 1, 
            "total_bases" : 21, 
            "free_bases" : 3, 
            "number" : "54", 
            "longitude" : "-3.7004230", 
            "no_available" : 0, 
            "address" : "Calle BarcelÛ n∫ 7", 
            "latitude" : "40.4266828", 
            "dock_bikes" : 18, 
            "id" : 58
        }, 
        {
            "activate" : 1, 
            "name" : "Plaza de San Ildefonso", 
            "reservations_count" : 0, 
            "light" : 2, 
            "total_bases" : 24, 
            "free_bases" : 9, 
            "number" : "55", 
            "longitude" : "-3.7020842", 
            "no_available" : 0, 
            "address" : "Plaza de San Ildefonso n∫ 3", 
            "latitude" : "40.4239757", 
            "dock_bikes" : 15, 
            "id" : 59
        }, 
        {
            "activate" : 1, 
            "name" : "Plaza del Carmen ", 
            "reservations_count" : 0, 
            "light" : 0, 
            "total_bases" : 24, 
            "free_bases" : 20, 
            "number" : "56", 
            "longitude" : "-3.7032414", 
            "no_available" : 0, 
            "address" : "Plaza del Carmen n∫ 1", 
            "latitude" : "40.4184192", 
            "dock_bikes" : 3, 
            "id" : 60
        }, 
        {
            "activate" : 1, 
            "name" : "Santa Cruz del Marcenado", 
            "reservations_count" : 0, 
            "light" : 0, 
            "total_bases" : 24, 
            "free_bases" : 19, 
            "number" : "57", 
            "longitude" : "-3.7126299", 
            "no_available" : 0, 
            "address" : "Calle Santa Cruz del Marcenado n∫ 24", 
            "latitude" : "40.4295658", 
            "dock_bikes" : 4, 
            "id" : 61
        }, 
        {
            "activate" : 1, 
            "name" : "Augusto Figueroa", 
            "reservations_count" : 0, 
            "light" : 2, 
            "total_bases" : 24, 
            "free_bases" : 7, 
            "number" : "58", 
            "longitude" : "-3.6978950", 
            "no_available" : 0, 
            "address" : "Calle Augusto Figueroa n∫ 33", 
            "latitude" : "40.4222862", 
            "dock_bikes" : 16, 
            "id" : 62
        }, 
        {
            "activate" : 1, 
            "name" : "Plaza de Juan Pujol", 
            "reservations_count" : 0, 
            "light" : 2, 
            "total_bases" : 21, 
            "free_bases" : 9, 
            "number" : "59", 
            "longitude" : "-3.7043418", 
            "no_available" : 0, 
            "address" : "Calle EspÌritu Santo n∫ 30", 
            "latitude" : "40.4255495", 
            "dock_bikes" : 10, 
            "id" : 63
        }, 
        {
            "activate" : 1, 
            "name" : "Plaza de la Independencia", 
            "reservations_count" : 0, 
            "light" : 2, 
            "total_bases" : 24, 
            "free_bases" : 16, 
            "number" : "60", 
            "longitude" : "-3.6883980", 
            "no_available" : 0, 
            "address" : "Plaza de la Independencia n∫ 6", 
            "latitude" : "40.4197520", 
            "dock_bikes" : 8, 
            "id" : 64
        }, 
        {
            "activate" : 1, 
            "name" : "Narv·ez", 
            "reservations_count" : 0, 
            "light" : 0, 
            "total_bases" : 24, 
            "free_bases" : 22, 
            "number" : "61", 
            "longitude" : "-3.6752045", 
            "no_available" : 0, 
            "address" : "Calle O'Donnell n∫ 28", 
            "latitude" : "40.4213983", 
            "dock_bikes" : 2, 
            "id" : 65
        }, 
        {
            "activate" : 1, 
            "name" : "O'Donnell", 
            "reservations_count" : 0, 
            "light" : 2, 
            "total_bases" : 24, 
            "free_bases" : 16, 
            "number" : "62", 
            "longitude" : "-3.6724968", 
            "no_available" : 0, 
            "address" : "Calle O'Donnell n∫ 50", 
            "latitude" : "40.4213148", 
            "dock_bikes" : 8, 
            "id" : 66
        }, 
        {
            "activate" : 1, 
            "name" : "Ibiza", 
            "reservations_count" : 0, 
            "light" : 2, 
            "total_bases" : 24, 
            "free_bases" : 16, 
            "number" : "63", 
            "longitude" : "-3.6708959", 
            "no_available" : 0, 
            "address" : "Calle Ibiza n∫ 62", 
            "latitude" : "40.4179237", 
            "dock_bikes" : 8, 
            "id" : 67
        }, 
        {
            "activate" : 1, 
            "name" : "Antonio Maura", 
            "reservations_count" : 0, 
            "light" : 3, 
            "total_bases" : 24, 
            "free_bases" : 21, 
            "number" : "65", 
            "longitude" : "-3.6904525", 
            "no_available" : 1, 
            "address" : "Calle Antonio Maura n∫ 15", 
            "latitude" : "40.4165605", 
            "dock_bikes" : 2, 
            "id" : 69
        }, 
        {
            "activate" : 1, 
            "name" : "AlmadÈn", 
            "reservations_count" : 0, 
            "light" : 0, 
            "total_bases" : 24, 
            "free_bases" : 22, 
            "number" : "67", 
            "longitude" : "-3.6932250", 
            "no_available" : 0, 
            "address" : "Calle AlmadÈn n∫ 28", 
            "latitude" : "40.4108472", 
            "dock_bikes" : 1, 
            "id" : 71
        }, 
        {
            "activate" : 1, 
            "name" : "Espalter", 
            "reservations_count" : 0, 
            "light" : 2, 
            "total_bases" : 21, 
            "free_bases" : 9, 
            "number" : "68", 
            "longitude" : "-3.6912023", 
            "no_available" : 0, 
            "address" : "Calle Espalter n∫ 1", 
            "latitude" : "40.4128372", 
            "dock_bikes" : 11, 
            "id" : 72
        }, 
        {
            "activate" : 1, 
            "name" : "Puerta del ¡ngel CaÌdo", 
            "reservations_count" : 0, 
            "light" : 1, 
            "total_bases" : 27, 
            "free_bases" : 5, 
            "number" : "69", 
            "longitude" : "-3.6888220", 
            "no_available" : 0, 
            "address" : "Avenida de Alfonso XII n∫ 54", 
            "latitude" : "40.4098080", 
            "dock_bikes" : 20, 
            "id" : 73
        }, 
        {
            "activate" : 1, 
            "name" : "Puerta del Doce de Octubre", 
            "reservations_count" : 0, 
            "light" : 0, 
            "total_bases" : 24, 
            "free_bases" : 18, 
            "number" : "70", 
            "longitude" : "-3.6779232", 
            "no_available" : 0, 
            "address" : "Avenida de MenÈndez Pelayo n∫ 63", 
            "latitude" : "40.4153053", 
            "dock_bikes" : 6, 
            "id" : 74
        }, 
        {
            "activate" : 1, 
            "name" : "Doce de Octubre", 
            "reservations_count" : 0, 
            "light" : 2, 
            "total_bases" : 24, 
            "free_bases" : 16, 
            "number" : "71", 
            "longitude" : "-3.6738865", 
            "no_available" : 0, 
            "address" : "Calle Doce de Octubre n∫ 28", 
            "latitude" : "40.4159569", 
            "dock_bikes" : 8, 
            "id" : 75
        }, 
        {
            "activate" : 1, 
            "name" : "Sainz de Baranda", 
            "reservations_count" : 2, 
            "light" : 0, 
            "total_bases" : 24, 
            "free_bases" : 20, 
            "number" : "72", 
            "longitude" : "-3.6691838", 
            "no_available" : 0, 
            "address" : "Calle Doctor Esquerdo n∫ 99", 
            "latitude" : "40.4157413", 
            "dock_bikes" : 2, 
            "id" : 76
        }, 
        {
            "activate" : 1, 
            "name" : "Plaza de los Astros", 
            "reservations_count" : 0, 
            "light" : 2, 
            "total_bases" : 24, 
            "free_bases" : 15, 
            "number" : "73", 
            "longitude" : "-3.6689089", 
            "no_available" : 0, 
            "address" : "Avenida de Nazaret n∫ 7", 
            "latitude" : "40.4114475", 
            "dock_bikes" : 9, 
            "id" : 77
        }, 
        {
            "activate" : 1, 
            "name" : "Puerta del PacÌfico ", 
            "reservations_count" : 0, 
            "light" : 0, 
            "total_bases" : 24, 
            "free_bases" : 18, 
            "number" : "74", 
            "longitude" : "-3.6766813", 
            "no_available" : 0, 
            "address" : "Avenida de MenÈndez Pelayo n∫ 73", 
            "latitude" : "40.4117627", 
            "dock_bikes" : 6, 
            "id" : 78
        }, 
        {
            "activate" : 1, 
            "name" : "MenÈndez Pelayo", 
            "reservations_count" : 0, 
            "light" : 2, 
            "total_bases" : 24, 
            "free_bases" : 10, 
            "number" : "75", 
            "longitude" : "-3.6784838", 
            "no_available" : 0, 
            "address" : "Avenida de MenÈndez Pelayo n∫ 90", 
            "latitude" : "40.4082805", 
            "dock_bikes" : 14, 
            "id" : 79
        }, 
        {
            "activate" : 1, 
            "name" : "Puerta de Mariano de Cavia", 
            "reservations_count" : 0, 
            "light" : 0, 
            "total_bases" : 24, 
            "free_bases" : 18, 
            "number" : "76", 
            "longitude" : "-3.6750121", 
            "no_available" : 0, 
            "address" : "Avenida del Mediterr·neo n∫ 19", 
            "latitude" : "40.4076726", 
            "dock_bikes" : 5, 
            "id" : 80
        }, 
        {
            "activate" : 1, 
            "name" : "Conde de Casal", 
            "reservations_count" : 0, 
            "light" : 2, 
            "total_bases" : 22, 
            "free_bases" : 8, 
            "number" : "77", 
            "longitude" : "-3.6704220", 
            "no_available" : 0, 
            "address" : "Plaza del Conde de Casal n∫ 8", 
            "latitude" : "40.4063500", 
            "dock_bikes" : 14, 
            "id" : 81
        }, 
        {
            "activate" : 1, 
            "name" : "Pedro Bosch", 
            "reservations_count" : 0, 
            "light" : 1, 
            "total_bases" : 24, 
            "free_bases" : 6, 
            "number" : "78", 
            "longitude" : "-3.6744804", 
            "no_available" : 0, 
            "address" : "Calle Cerro de la Plata n∫ 2", 
            "latitude" : "40.4009101", 
            "dock_bikes" : 17, 
            "id" : 82
        }, 
        {
            "activate" : 1, 
            "name" : "Puerta de Granada", 
            "reservations_count" : 0, 
            "light" : 1, 
            "total_bases" : 24, 
            "free_bases" : 5, 
            "number" : "79", 
            "longitude" : "-3.6803874", 
            "no_available" : 0, 
            "address" : "Avenida de MenÈndez Pelayo n∫ 38", 
            "latitude" : "40.4051451", 
            "dock_bikes" : 19, 
            "id" : 83
        }, 
        {
            "activate" : 1, 
            "name" : "Atocha A", 
            "reservations_count" : 0, 
            "light" : 2, 
            "total_bases" : 24, 
            "free_bases" : 10, 
            "number" : "80a", 
            "longitude" : "-3.6902255", 
            "no_available" : 0, 
            "address" : "Paseo de la Infanta Isabel n∫ 3", 
            "latitude" : "40.4075685", 
            "dock_bikes" : 14, 
            "id" : 84
        }, 
        {
            "activate" : 1, 
            "name" : "Atocha B", 
            "reservations_count" : 0, 
            "light" : 1, 
            "total_bases" : 27, 
            "free_bases" : 6, 
            "number" : "80b", 
            "longitude" : "-3.6901234", 
            "no_available" : 0, 
            "address" : "Paseo de la Infanta Isabel n∫ 3", 
            "latitude" : "40.4074902", 
            "dock_bikes" : 20, 
            "id" : 85
        }, 
        {
            "activate" : 1, 
            "name" : "Cuesta de Moyano", 
            "reservations_count" : 0, 
            "light" : 0, 
            "total_bases" : 24, 
            "free_bases" : 18, 
            "number" : "81", 
            "longitude" : "-3.6919870", 
            "no_available" : 0, 
            "address" : "Plaza del Emperador Carlos V n∫ 11", 
            "latitude" : "40.4092970", 
            "dock_bikes" : 4, 
            "id" : 86
        }, 
        {
            "activate" : 1, 
            "name" : "NiÒo Jes˙s", 
            "reservations_count" : 0, 
            "light" : 0, 
            "total_bases" : 24, 
            "free_bases" : 18, 
            "number" : "82", 
            "longitude" : "-3.6697526", 
            "no_available" : 0, 
            "address" : "Calle Doctor Esquerdo n∫ 161", 
            "latitude" : "40.4084556", 
            "dock_bikes" : 6, 
            "id" : 87
        }, 
        {
            "activate" : 1, 
            "name" : "PÌo Baroja", 
            "reservations_count" : 0, 
            "light" : 2, 
            "total_bases" : 24, 
            "free_bases" : 15, 
            "number" : "83", 
            "longitude" : "-3.6751105", 
            "no_available" : 0, 
            "address" : "Calle PÌo Baroja n∫ 10", 
            "latitude" : "40.4130243", 
            "dock_bikes" : 9, 
            "id" : 88
        }, 
        {
            "activate" : 1, 
            "name" : "Valderribas", 
            "reservations_count" : 0, 
            "light" : 2, 
            "total_bases" : 24, 
            "free_bases" : 9, 
            "number" : "84", 
            "longitude" : "-3.6726019", 
            "no_available" : 0, 
            "address" : "Calle Doctor Esquerdo n∫ 191", 
            "latitude" : "40.4032501", 
            "dock_bikes" : 14, 
            "id" : 89
        }, 
        {
            "activate" : 1, 
            "name" : "Puerta de Madrid", 
            "reservations_count" : 0, 
            "light" : 0, 
            "total_bases" : 27, 
            "free_bases" : 21, 
            "number" : "85", 
            "longitude" : "-3.6800080", 
            "no_available" : 0, 
            "address" : "Avenida de MenÈndez Pelayo n∫ 11", 
            "latitude" : "40.4215010", 
            "dock_bikes" : 6, 
            "id" : 90
        }, 
        {
            "activate" : 1, 
            "name" : "Cibeles", 
            "reservations_count" : 0, 
            "light" : 1, 
            "total_bases" : 21, 
            "free_bases" : 2, 
            "number" : "86", 
            "longitude" : "-3.6926217", 
            "no_available" : 0, 
            "address" : "Paseo del Prado n∫ 1", 
            "latitude" : "40.4186148", 
            "dock_bikes" : 17, 
            "id" : 91
        }, 
        {
            "activate" : 1, 
            "name" : "Ayala", 
            "reservations_count" : 0, 
            "light" : 1, 
            "total_bases" : 24, 
            "free_bases" : 6, 
            "number" : "87", 
            "longitude" : "-3.6832566", 
            "no_available" : 0, 
            "address" : "Calle Ayala n∫ 44", 
            "latitude" : "40.4277360", 
            "dock_bikes" : 18, 
            "id" : 92
        }, 
        {
            "activate" : 1, 
            "name" : "Embajada de Italia", 
            "reservations_count" : 0, 
            "light" : 2, 
            "total_bases" : 24, 
            "free_bases" : 16, 
            "number" : "88", 
            "longitude" : "-3.6838303", 
            "no_available" : 0, 
            "address" : "Calle Vel·zquez n∫ 75", 
            "latitude" : "40.4313576", 
            "dock_bikes" : 8, 
            "id" : 93
        }, 
        {
            "activate" : 1, 
            "name" : "Conde PeÒalver", 
            "reservations_count" : 0, 
            "light" : 0, 
            "total_bases" : 24, 
            "free_bases" : 23, 
            "number" : "89", 
            "longitude" : "-3.6752024", 
            "no_available" : 0, 
            "address" : "Calle Ayala n∫ 102", 
            "latitude" : "40.4272582", 
            "dock_bikes" : 1, 
            "id" : 94
        }, 
        {
            "activate" : 1, 
            "name" : "General PardiÒas", 
            "reservations_count" : 0, 
            "light" : 2, 
            "total_bases" : 30, 
            "free_bases" : 18, 
            "number" : "90", 
            "longitude" : "-3.6837876", 
            "no_available" : 0, 
            "address" : "Calle Goya n∫ 18", 
            "latitude" : "40.4250361", 
            "dock_bikes" : 9, 
            "id" : 95
        }, 
        {
            "activate" : 1, 
            "name" : "PrÌncipe de Vergara", 
            "reservations_count" : 0, 
            "light" : 0, 
            "total_bases" : 24, 
            "free_bases" : 19, 
            "number" : "91", 
            "longitude" : "-3.6787441", 
            "no_available" : 0, 
            "address" : "Calle Hermosilla n∫ 70", 
            "latitude" : "40.4261340", 
            "dock_bikes" : 5, 
            "id" : 96
        }, 
        {
            "activate" : 1, 
            "name" : "Claudio Coello", 
            "reservations_count" : 0, 
            "light" : 2, 
            "total_bases" : 24, 
            "free_bases" : 15, 
            "number" : "92", 
            "longitude" : "-3.6865463", 
            "no_available" : 0, 
            "address" : "Calle Claudio Coello n∫ 45", 
            "latitude" : "40.4262945", 
            "dock_bikes" : 9, 
            "id" : 97
        }, 
        {
            "activate" : 1, 
            "name" : "Plaza de ColÛn", 
            "reservations_count" : 0, 
            "light" : 2, 
            "total_bases" : 24, 
            "free_bases" : 12, 
            "number" : "93", 
            "longitude" : "-3.6893698", 
            "no_available" : 0, 
            "address" : "Calle Goya n∫ 1", 
            "latitude" : "40.4257046", 
            "dock_bikes" : 12, 
            "id" : 98
        }, 
        {
            "activate" : 1, 
            "name" : "Biblioteca Nacional", 
            "reservations_count" : 0, 
            "light" : 0, 
            "total_bases" : 21, 
            "free_bases" : 18, 
            "number" : "94", 
            "longitude" : "-3.6909648", 
            "no_available" : 0, 
            "address" : "Paseo de Recoletos n∫ 32-34", 
            "latitude" : "40.4226990", 
            "dock_bikes" : 2, 
            "id" : 99
        }, 
        {
            "activate" : 1, 
            "name" : "Villanueva", 
            "reservations_count" : 0, 
            "light" : 0, 
            "total_bases" : 24, 
            "free_bases" : 17, 
            "number" : "95", 
            "longitude" : "-3.6870548", 
            "no_available" : 0, 
            "address" : "Calle Claudio Coello n∫ 109", 
            "latitude" : "40.4226584", 
            "dock_bikes" : 7, 
            "id" : 100
        }, 
        {
            "activate" : 1, 
            "name" : "CastellÛ", 
            "reservations_count" : 0, 
            "light" : 2, 
            "total_bases" : 27, 
            "free_bases" : 15, 
            "number" : "96", 
            "longitude" : "-3.6821793", 
            "no_available" : 0, 
            "address" : "Calle Alcal· n∫ 111", 
            "latitude" : "40.4220640", 
            "dock_bikes" : 11, 
            "id" : 101
        }, 
        {
            "activate" : 1, 
            "name" : "Alcal·", 
            "reservations_count" : 0, 
            "light" : 2, 
            "total_bases" : 27, 
            "free_bases" : 16, 
            "number" : "97", 
            "longitude" : "-3.6801307", 
            "no_available" : 0, 
            "address" : "Avenida de MenÈndez Pelayo n∫ 3", 
            "latitude" : "40.4226906", 
            "dock_bikes" : 9, 
            "id" : 102
        }, 
        {
            "activate" : 1, 
            "name" : "Plaza de Felipe II", 
            "reservations_count" : 0, 
            "light" : 2, 
            "total_bases" : 24, 
            "free_bases" : 14, 
            "number" : "98", 
            "longitude" : "-3.6753567", 
            "no_available" : 0, 
            "address" : "Plaza de Felipe II", 
            "latitude" : "40.4242625", 
            "dock_bikes" : 9, 
            "id" : 103
        }, 
        {
            "activate" : 1, 
            "name" : "Alc·ntara", 
            "reservations_count" : 0, 
            "light" : 0, 
            "total_bases" : 24, 
            "free_bases" : 21, 
            "number" : "99", 
            "longitude" : "-3.6738714", 
            "no_available" : 0, 
            "address" : "Calle Alc·ntara n∫ 2", 
            "latitude" : "40.4261851", 
            "dock_bikes" : 2, 
            "id" : 104
        }, 
        {
            "activate" : 1, 
            "name" : "Palacio de Deportes", 
            "reservations_count" : 0, 
            "light" : 2, 
            "total_bases" : 24, 
            "free_bases" : 13, 
            "number" : "100", 
            "longitude" : "-3.6738635", 
            "no_available" : 0, 
            "address" : "Calle Goya n∫ 99", 
            "latitude" : "40.4248457", 
            "dock_bikes" : 10, 
            "id" : 105
        }, 
        {
            "activate" : 1, 
            "name" : "Jorge Juan", 
            "reservations_count" : 0, 
            "light" : 0, 
            "total_bases" : 24, 
            "free_bases" : 20, 
            "number" : "101", 
            "longitude" : "-3.6691523", 
            "no_available" : 0, 
            "address" : "Calle Jorge Juan n∫ 131", 
            "latitude" : "40.4231526", 
            "dock_bikes" : 3, 
            "id" : 106
        }, 
        {
            "activate" : 1, 
            "name" : "Vel·zquez", 
            "reservations_count" : 0, 
            "light" : 2, 
            "total_bases" : 24, 
            "free_bases" : 14, 
            "number" : "102", 
            "longitude" : "-3.6840229", 
            "no_available" : 0, 
            "address" : "Calle Alcal· n∫ 95", 
            "latitude" : "40.4211802", 
            "dock_bikes" : 9, 
            "id" : 107
        }, 
        {
            "activate" : 1, 
            "name" : "Ortega y Gasset", 
            "reservations_count" : 0, 
            "light" : 0, 
            "total_bases" : 24, 
            "free_bases" : 22, 
            "number" : "103", 
            "longitude" : "-3.6865654", 
            "no_available" : 0, 
            "address" : "Calle Ortega y Gasset n∫ 6", 
            "latitude" : "40.4303057", 
            "dock_bikes" : 0, 
            "id" : 108
        }, 
        {
            "activate" : 1, 
            "name" : "Castellana", 
            "reservations_count" : 0, 
            "light" : 2, 
            "total_bases" : 21, 
            "free_bases" : 12, 
            "number" : "104", 
            "longitude" : "-3.6895336", 
            "no_available" : 0, 
            "address" : "Paseo de la Castellana n∫ 4", 
            "latitude" : "40.4268331", 
            "dock_bikes" : 9, 
            "id" : 109
        }, 
        {
            "activate" : 1, 
            "name" : "Serrano", 
            "reservations_count" : 0, 
            "light" : 0, 
            "total_bases" : 24, 
            "free_bases" : 21, 
            "number" : "105", 
            "longitude" : "-3.6873922", 
            "no_available" : 0, 
            "address" : "Calle Serrano n∫ 54", 
            "latitude" : "40.4267905", 
            "dock_bikes" : 2, 
            "id" : 110
        }, 
        {
            "activate" : 1, 
            "name" : "ColÛn A", 
            "reservations_count" : 0, 
            "light" : 0, 
            "total_bases" : 18, 
            "free_bases" : 13, 
            "number" : "106a", 
            "longitude" : "-3.6877227", 
            "no_available" : 0, 
            "address" : "Calle Serrano n∫ 34", 
            "latitude" : "40.4251002", 
            "dock_bikes" : 5, 
            "id" : 111
        }, 
        {
            "activate" : 1, 
            "name" : "ColÛn B", 
            "reservations_count" : 0, 
            "light" : 0, 
            "total_bases" : 18, 
            "free_bases" : 12, 
            "number" : "106b", 
            "longitude" : "-3.6877450", 
            "no_available" : 0, 
            "address" : "Calle Serrano n∫ 34", 
            "latitude" : "40.4249630", 
            "dock_bikes" : 5, 
            "id" : 112
        }, 
        {
            "activate" : 1, 
            "name" : "Columela", 
            "reservations_count" : 0, 
            "light" : 2, 
            "total_bases" : 24, 
            "free_bases" : 16, 
            "number" : "107", 
            "longitude" : "-3.6884369", 
            "no_available" : 0, 
            "address" : "Calle Serrano n∫ 6", 
            "latitude" : "40.4215246", 
            "dock_bikes" : 8, 
            "id" : 113
        }, 
        {
            "activate" : 1, 
            "name" : "M·rtires Concepcionistas", 
            "reservations_count" : 1, 
            "light" : 2, 
            "total_bases" : 27, 
            "free_bases" : 14, 
            "number" : "108", 
            "longitude" : "-3.6706024", 
            "no_available" : 0, 
            "address" : "Calle M·rtires Concepcionistas n∫ 2", 
            "latitude" : "40.4273005", 
            "dock_bikes" : 10, 
            "id" : 114
        }, 
        {
            "activate" : 1, 
            "name" : "MarquÈs de Salamanca", 
            "reservations_count" : 0, 
            "light" : 2, 
            "total_bases" : 24, 
            "free_bases" : 10, 
            "number" : "109", 
            "longitude" : "-3.6816402", 
            "no_available" : 0, 
            "address" : "Calle JosÈ Ortega y Gasset n∫ 30", 
            "latitude" : "40.4300481", 
            "dock_bikes" : 14, 
            "id" : 115
        }, 
        {
            "activate" : 1, 
            "name" : "Moncloa", 
            "reservations_count" : 0, 
            "light" : 2, 
            "total_bases" : 24, 
            "free_bases" : 13, 
            "number" : "110", 
            "longitude" : "-3.7206893", 
            "no_available" : 0, 
            "address" : "Paseo de Moret n∫ 2", 
            "latitude" : "40.4344969", 
            "dock_bikes" : 9, 
            "id" : 116
        }, 
        {
            "activate" : 1, 
            "name" : "Arcipreste de Hita A", 
            "reservations_count" : 0, 
            "light" : 0, 
            "total_bases" : 24, 
            "free_bases" : 16, 
            "number" : "111a", 
            "longitude" : "-3.7175435", 
            "no_available" : 0, 
            "address" : "Calle Arcipreste de Hita n∫ 12", 
            "latitude" : "40.4337322", 
            "dock_bikes" : 7, 
            "id" : 117
        }, 
        {
            "activate" : 1, 
            "name" : "Arcipreste de Hita B", 
            "reservations_count" : 0, 
            "light" : 1, 
            "total_bases" : 24, 
            "free_bases" : 5, 
            "number" : "111b", 
            "longitude" : "-3.7175115", 
            "no_available" : 0, 
            "address" : "Calle Arcipreste de Hita n∫ 12", 
            "latitude" : "40.4337036", 
            "dock_bikes" : 18, 
            "id" : 118
        }, 
        {
            "activate" : 1, 
            "name" : "Paseo de Moret", 
            "reservations_count" : 0, 
            "light" : 2, 
            "total_bases" : 24, 
            "free_bases" : 11, 
            "number" : "112", 
            "longitude" : "-3.7246532", 
            "no_available" : 0, 
            "address" : "Paseo de Moret n∫ 11", 
            "latitude" : "40.4325991", 
            "dock_bikes" : 13, 
            "id" : 119
        }, 
        {
            "activate" : 1, 
            "name" : "Pintor Rosales", 
            "reservations_count" : 0, 
            "light" : 2, 
            "total_bases" : 24, 
            "free_bases" : 7, 
            "number" : "113", 
            "longitude" : "-3.7205129", 
            "no_available" : 0, 
            "address" : "Paseo del Pintor Rosales n∫ 38", 
            "latitude" : "40.4276570", 
            "dock_bikes" : 15, 
            "id" : 120
        }, 
        {
            "activate" : 1, 
            "name" : "Quintana", 
            "reservations_count" : 0, 
            "light" : 0, 
            "total_bases" : 24, 
            "free_bases" : 19, 
            "number" : "114", 
            "longitude" : "-3.7174158", 
            "no_available" : 0, 
            "address" : "Calle Quintana n∫ 11-13", 
            "latitude" : "40.4277456", 
            "dock_bikes" : 5, 
            "id" : 121
        }, 
        {
            "activate" : 1, 
            "name" : "Ferraz", 
            "reservations_count" : 0, 
            "light" : 1, 
            "total_bases" : 24, 
            "free_bases" : 3, 
            "number" : "115", 
            "longitude" : "-3.7170448", 
            "no_available" : 0, 
            "address" : "Calle Evaristo San Miguel n∫ 2", 
            "latitude" : "40.4253944", 
            "dock_bikes" : 20, 
            "id" : 122
        }, 
        {
            "activate" : 1, 
            "name" : "Plaza de EspaÒa A", 
            "reservations_count" : 0, 
            "light" : 1, 
            "total_bases" : 24, 
            "free_bases" : 2, 
            "number" : "116a", 
            "longitude" : "-3.7116030", 
            "no_available" : 0, 
            "address" : "Plaza de EspaÒa", 
            "latitude" : "40.4240200", 
            "dock_bikes" : 22, 
            "id" : 123
        }, 
        {
            "activate" : 1, 
            "name" : "Plaza de EspaÒa B", 
            "reservations_count" : 0, 
            "light" : 2, 
            "total_bases" : 24, 
            "free_bases" : 7, 
            "number" : "116b", 
            "longitude" : "-3.7117030", 
            "no_available" : 0, 
            "address" : "Plaza de EspaÒa", 
            "latitude" : "40.4241200", 
            "dock_bikes" : 15, 
            "id" : 124
        }, 
        {
            "activate" : 1, 
            "name" : "Altamirano", 
            "reservations_count" : 0, 
            "light" : 0, 
            "total_bases" : 24, 
            "free_bases" : 20, 
            "number" : "117", 
            "longitude" : "-3.7188898", 
            "no_available" : 0, 
            "address" : "Calle Altamirano n∫ 24", 
            "latitude" : "40.4309797", 
            "dock_bikes" : 3, 
            "id" : 125
        }, 
        {
            "activate" : 1, 
            "name" : "Juan MartÌn", 
            "reservations_count" : 0, 
            "light" : 2, 
            "total_bases" : 24, 
            "free_bases" : 10, 
            "number" : "118", 
            "longitude" : "-3.6882407", 
            "no_available" : 0, 
            "address" : "Calle Juan MartÌn el Empecinado n∫ 14", 
            "latitude" : "40.4007810", 
            "dock_bikes" : 14, 
            "id" : 126
        }, 
        {
            "activate" : 1, 
            "name" : "MÈndez ¡lvaro", 
            "reservations_count" : 0, 
            "light" : 1, 
            "total_bases" : 24, 
            "free_bases" : 0, 
            "number" : "119", 
            "longitude" : "-3.6863218", 
            "no_available" : 0, 
            "address" : "Calle MÈndez ¡lvaro n∫ 11", 
            "latitude" : "40.4013216", 
            "dock_bikes" : 24, 
            "id" : 127
        }, 
        {
            "activate" : 1, 
            "name" : "Palos de la Frontera", 
            "reservations_count" : 0, 
            "light" : 2, 
            "total_bases" : 24, 
            "free_bases" : 14, 
            "number" : "120", 
            "longitude" : "-3.6944768", 
            "no_available" : 0, 
            "address" : "Calle Palos de la Frontera n∫ 40", 
            "latitude" : "40.4032208", 
            "dock_bikes" : 9, 
            "id" : 128
        }, 
        {
            "activate" : 1, 
            "name" : "Santa MarÌa de la Cabeza", 
            "reservations_count" : 0, 
            "light" : 2, 
            "total_bases" : 24, 
            "free_bases" : 11, 
            "number" : "121", 
            "longitude" : "-3.6987665", 
            "no_available" : 0, 
            "address" : "Paseo de Santa MarÌa de la Cabeza n∫ 58", 
            "latitude" : "40.4017926", 
            "dock_bikes" : 11, 
            "id" : 129
        }, 
        {
            "activate" : 1, 
            "name" : "Santa Engracia 14", 
            "reservations_count" : 0, 
            "light" : 0, 
            "total_bases" : 24, 
            "free_bases" : 20, 
            "number" : "122", 
            "longitude" : "-3.6963983", 
            "no_available" : 0, 
            "address" : "Calle Santa Engracia n∫ 14", 
            "latitude" : "40.4295863", 
            "dock_bikes" : 4, 
            "id" : 130
        }, 
        {
            "activate" : 1, 
            "name" : "Guzm·n el Bueno", 
            "reservations_count" : 0, 
            "light" : 0, 
            "total_bases" : 24, 
            "free_bases" : 22, 
            "number" : "123", 
            "longitude" : "-3.7133412", 
            "no_available" : 0, 
            "address" : "Calle Guzm·n el Bueno n∫ 2", 
            "latitude" : "40.4306458", 
            "dock_bikes" : 2, 
            "id" : 131
        }, 
        {
            "activate" : 1, 
            "name" : "Manuel Silvela", 
            "reservations_count" : 0, 
            "light" : 1, 
            "total_bases" : 24, 
            "free_bases" : 5, 
            "number" : "124", 
            "longitude" : "-3.6993465", 
            "no_available" : 0, 
            "address" : "Calle Manuel Silvela n∫ 20", 
            "latitude" : "40.4309524", 
            "dock_bikes" : 19, 
            "id" : 169
        }, 
        {
            "activate" : 1, 
            "name" : "General MartÌnez Campos ", 
            "reservations_count" : 0, 
            "light" : 2, 
            "total_bases" : 24, 
            "free_bases" : 15, 
            "number" : "125", 
            "longitude" : "-3.6948626", 
            "no_available" : 0, 
            "address" : "Calle Fern·ndez de la Hoz n∫ 29", 
            "latitude" : "40.4352850", 
            "dock_bikes" : 7, 
            "id" : 164
        }, 
        {
            "activate" : 1, 
            "name" : "General ¡lvarez de Castro", 
            "reservations_count" : 0, 
            "light" : 2, 
            "total_bases" : 24, 
            "free_bases" : 14, 
            "number" : "126", 
            "longitude" : "-3.7015686", 
            "no_available" : 0, 
            "address" : "Calle del General ¡lvarez de Castro n∫ 2", 
            "latitude" : "40.4344731", 
            "dock_bikes" : 10, 
            "id" : 163
        }, 
        {
            "activate" : 1, 
            "name" : "Fernando el CatÛlico", 
            "reservations_count" : 0, 
            "light" : 0, 
            "total_bases" : 24, 
            "free_bases" : 16, 
            "number" : "127", 
            "longitude" : "-3.7084390", 
            "no_available" : 0, 
            "address" : "Calle Fernando el CatÛlico n∫ 19", 
            "latitude" : "40.4338516", 
            "dock_bikes" : 5, 
            "id" : 168
        }, 
        {
            "activate" : 1, 
            "name" : "Cea Berm˙dez", 
            "reservations_count" : 0, 
            "light" : 2, 
            "total_bases" : 24, 
            "free_bases" : 14, 
            "number" : "128", 
            "longitude" : "-3.7154329", 
            "no_available" : 0, 
            "address" : "Calle Cea Berm˙dez n∫ 59", 
            "latitude" : "40.4389940", 
            "dock_bikes" : 7, 
            "id" : 160
        }, 
        {
            "activate" : 1, 
            "name" : "JosÈ Abascal", 
            "reservations_count" : 0, 
            "light" : 2, 
            "total_bases" : 24, 
            "free_bases" : 11, 
            "number" : "129", 
            "longitude" : "-3.6982209", 
            "no_available" : 0, 
            "address" : "Calle JosÈ Abascal n∫ 33", 
            "latitude" : "40.4385316", 
            "dock_bikes" : 10, 
            "id" : 161
        }, 
        {
            "activate" : 1, 
            "name" : "Santa Engracia 127", 
            "reservations_count" : 0, 
            "light" : 2, 
            "total_bases" : 20, 
            "free_bases" : 11, 
            "number" : "130", 
            "longitude" : "-3.7016321", 
            "no_available" : 0, 
            "address" : "Calle Santa Engracia n∫ 127", 
            "latitude" : "40.4413860", 
            "dock_bikes" : 9, 
            "id" : 157
        }, 
        {
            "activate" : 1, 
            "name" : "Bravo Murillo 44", 
            "reservations_count" : 0, 
            "light" : 0, 
            "total_bases" : 24, 
            "free_bases" : 23, 
            "number" : "131", 
            "longitude" : "-3.7039582", 
            "no_available" : 0, 
            "address" : "Calle Bravo Murillo n∫ 44", 
            "latitude" : "40.4412115", 
            "dock_bikes" : 1, 
            "id" : 156
        }, 
        {
            "activate" : 1, 
            "name" : "Glorieta de los Cuatro Caminos", 
            "reservations_count" : 0, 
            "light" : 1, 
            "total_bases" : 24, 
            "free_bases" : 1, 
            "number" : "132", 
            "longitude" : "-3.7036675", 
            "no_available" : 0, 
            "address" : "Calle Santa Engracia n∫ 168", 
            "latitude" : "40.4463667", 
            "dock_bikes" : 23, 
            "id" : 149
        }, 
        {
            "activate" : 1, 
            "name" : "Raimundo Fern·ndez", 
            "reservations_count" : 0, 
            "light" : 0, 
            "total_bases" : 24, 
            "free_bases" : 16, 
            "number" : "133", 
            "longitude" : "-3.7001669", 
            "no_available" : 0, 
            "address" : "Calle Raimundo Fern·ndez Villaverde n∫ 33-35", 
            "latitude" : "40.4471250", 
            "dock_bikes" : 6, 
            "id" : 150
        }, 
        {
            "activate" : 1, 
            "name" : "AgustÌn de Betancourt", 
            "reservations_count" : 0, 
            "light" : 0, 
            "total_bases" : 24, 
            "free_bases" : 22, 
            "number" : "134", 
            "longitude" : "-3.6956047", 
            "no_available" : 0, 
            "address" : "Calle MarÌa de Guzm·n n∫ 58", 
            "latitude" : "40.4440297", 
            "dock_bikes" : 0, 
            "id" : 153
        }, 
        {
            "activate" : 1, 
            "name" : "Plaza de San Juan de la Cruz", 
            "reservations_count" : 0, 
            "light" : 2, 
            "total_bases" : 24, 
            "free_bases" : 11, 
            "number" : "135", 
            "longitude" : "-3.6927821", 
            "no_available" : 0, 
            "address" : "Plaza de San Juan de la Cruz n∫ 11", 
            "latitude" : "40.4415974", 
            "dock_bikes" : 13, 
            "id" : 158
        }, 
        {
            "activate" : 1, 
            "name" : "Castellana 106", 
            "reservations_count" : 0, 
            "light" : 2, 
            "total_bases" : 24, 
            "free_bases" : 14, 
            "number" : "136", 
            "longitude" : "-3.6908610", 
            "no_available" : 0, 
            "address" : "Paseo de la Castellana n∫ 106", 
            "latitude" : "40.4453307", 
            "dock_bikes" : 10, 
            "id" : 151
        }, 
        {
            "activate" : 1, 
            "name" : "Plaza de la Rep˙blica Argentina", 
            "reservations_count" : 0, 
            "light" : 2, 
            "total_bases" : 24, 
            "free_bases" : 12, 
            "number" : "137", 
            "longitude" : "-3.6853312", 
            "no_available" : 0, 
            "address" : "Plaza de la Rep˙blica Argentina n∫ 6-7", 
            "latitude" : "40.4454110", 
            "dock_bikes" : 12, 
            "id" : 152
        }, 
        {
            "activate" : 1, 
            "name" : "Paseo de la Castellana con Raimundo Fern·ndez", 
            "reservations_count" : 0, 
            "light" : 0, 
            "total_bases" : 24, 
            "free_bases" : 21, 
            "number" : "138", 
            "longitude" : "-3.6917932", 
            "no_available" : 0, 
            "address" : "Paseo de la Castellana n∫ 67", 
            "latitude" : "40.4457414", 
            "dock_bikes" : 2, 
            "id" : 154
        }, 
        {
            "activate" : 1, 
            "name" : "JosÈ GutiÈrrez Abascal ", 
            "reservations_count" : 0, 
            "light" : 2, 
            "total_bases" : 24, 
            "free_bases" : 13, 
            "number" : "139", 
            "longitude" : "-3.6907784", 
            "no_available" : 0, 
            "address" : "Calle JosÈ GutiÈrrez Abascal n∫ 2", 
            "latitude" : "40.4396792", 
            "dock_bikes" : 11, 
            "id" : 159
        }, 
        {
            "activate" : 1, 
            "name" : "Vel·zquez 130", 
            "reservations_count" : 0, 
            "light" : 2, 
            "total_bases" : 24, 
            "free_bases" : 14, 
            "number" : "140", 
            "longitude" : "-3.6828620", 
            "no_available" : 0, 
            "address" : "Calle Vel·zquez n∫ 130", 
            "latitude" : "40.4379444", 
            "dock_bikes" : 10, 
            "id" : 162
        }, 
        {
            "activate" : 1, 
            "name" : "P∫ Castellana - Glorieta de Emilio Castelar", 
            "reservations_count" : 0, 
            "light" : 0, 
            "total_bases" : 12, 
            "free_bases" : 12, 
            "number" : "141", 
            "longitude" : "-3.6892368", 
            "no_available" : 0, 
            "address" : "Paseo de la Castellana n∫ 43", 
            "latitude" : "40.4355143", 
            "dock_bikes" : 0, 
            "id" : 165
        }, 
        {
            "activate" : 1, 
            "name" : "Castellana 42", 
            "reservations_count" : 0, 
            "light" : 2, 
            "total_bases" : 24, 
            "free_bases" : 12, 
            "number" : "142", 
            "longitude" : "-3.6879154", 
            "no_available" : 0, 
            "address" : "Paseo de la Castellana n∫ 42", 
            "latitude" : "40.4334087", 
            "dock_bikes" : 9, 
            "id" : 167
        }, 
        {
            "activate" : 1, 
            "name" : "Diego de LeÛn 52", 
            "reservations_count" : 0, 
            "light" : 0, 
            "total_bases" : 24, 
            "free_bases" : 16, 
            "number" : "143", 
            "longitude" : "-3.6784920", 
            "no_available" : 0, 
            "address" : "Calle Diego de LeÛn n∫ 52", 
            "latitude" : "40.4345973", 
            "dock_bikes" : 7, 
            "id" : 166
        }, 
        {
            "activate" : 1, 
            "name" : "Juan Bravo 50", 
            "reservations_count" : 0, 
            "light" : 0, 
            "total_bases" : 24, 
            "free_bases" : 22, 
            "number" : "144", 
            "longitude" : "-3.6758555", 
            "no_available" : 0, 
            "address" : "Calle Juan Bravo n∫ 50", 
            "latitude" : "40.4323655", 
            "dock_bikes" : 1, 
            "id" : 170
        }, 
        {
            "activate" : 1, 
            "name" : "Ortega y Gasset 87", 
            "reservations_count" : 0, 
            "light" : 1, 
            "total_bases" : 24, 
            "free_bases" : 7, 
            "number" : "145", 
            "longitude" : "-3.6712823", 
            "no_available" : 0, 
            "address" : "Calle Ortega y Gasset n∫ 87", 
            "latitude" : "40.4298870", 
            "dock_bikes" : 17, 
            "id" : 171
        }, 
        {
            "activate" : 1, 
            "name" : "MarÌa Francisca 1", 
            "reservations_count" : 0, 
            "light" : 0, 
            "total_bases" : 18, 
            "free_bases" : 12, 
            "number" : "146", 
            "longitude" : "-3.6787169", 
            "no_available" : 0, 
            "address" : "Calle MarÌa Francisca n∫ 1", 
            "latitude" : "40.4442258", 
            "dock_bikes" : 4, 
            "id" : 155
        }, 
        {
            "activate" : 1, 
            "name" : "Doctor Arce 45", 
            "reservations_count" : 0, 
            "light" : 0, 
            "total_bases" : 24, 
            "free_bases" : 17, 
            "number" : "147", 
            "longitude" : "-3.6797296", 
            "no_available" : 0, 
            "address" : "Avenida del Doctor Arce n∫ 45", 
            "latitude" : "40.4483269", 
            "dock_bikes" : 7, 
            "id" : 148
        }, 
        {
            "activate" : 1, 
            "name" : "Serrano 210", 
            "reservations_count" : 0, 
            "light" : 1, 
            "total_bases" : 24, 
            "free_bases" : 6, 
            "number" : "148", 
            "longitude" : "-3.6817962", 
            "no_available" : 0, 
            "address" : "Calle Serrano n∫ 210", 
            "latitude" : "40.4510188", 
            "dock_bikes" : 18, 
            "id" : 144
        }, 
        {
            "activate" : 1, 
            "name" : "Paseo de la Habana 42", 
            "reservations_count" : 0, 
            "light" : 0, 
            "total_bases" : 24, 
            "free_bases" : 23, 
            "number" : "149", 
            "longitude" : "-3.6881689", 
            "no_available" : 0, 
            "address" : "Paseo de la Habana n∫ 42", 
            "latitude" : "40.4498613", 
            "dock_bikes" : 1, 
            "id" : 146
        }, 
        {
            "activate" : 1, 
            "name" : "Castellana frente a Hermanos PinzÛn", 
            "reservations_count" : 0, 
            "light" : 2, 
            "total_bases" : 24, 
            "free_bases" : 10, 
            "number" : "150", 
            "longitude" : "-3.6905604", 
            "no_available" : 0, 
            "address" : "Paseo de la Castellana n∫ 124", 
            "latitude" : "40.4488924", 
            "dock_bikes" : 14, 
            "id" : 147
        }, 
        {
            "activate" : 1, 
            "name" : "Orense 12", 
            "reservations_count" : 0, 
            "light" : 2, 
            "total_bases" : 24, 
            "free_bases" : 9, 
            "number" : "151", 
            "longitude" : "-3.6952860", 
            "no_available" : 0, 
            "address" : "Calle Orense n∫ 12", 
            "latitude" : "40.4480662", 
            "dock_bikes" : 15, 
            "id" : 145
        }, 
        {
            "activate" : 1, 
            "name" : "General PerÛn 1", 
            "reservations_count" : 0, 
            "light" : 2, 
            "total_bases" : 24, 
            "free_bases" : 11, 
            "number" : "152", 
            "longitude" : "-3.6990077", 
            "no_available" : 0, 
            "address" : "Avenida del General PerÛn n∫ 1-4", 
            "latitude" : "40.4527164", 
            "dock_bikes" : 12, 
            "id" : 142
        }, 
        {
            "activate" : 1, 
            "name" : "General PerÛn con Poeta Joan Maragall", 
            "reservations_count" : 0, 
            "light" : 2, 
            "total_bases" : 24, 
            "free_bases" : 12, 
            "number" : "153", 
            "longitude" : "-3.6926510", 
            "no_available" : 0, 
            "address" : "Avenida del General PerÛn n∫ 36", 
            "latitude" : "40.4522938", 
            "dock_bikes" : 12, 
            "id" : 143
        }, 
        {
            "activate" : 1, 
            "name" : "Orense 36", 
            "reservations_count" : 0, 
            "light" : 2, 
            "total_bases" : 24, 
            "free_bases" : 14, 
            "number" : "154", 
            "longitude" : "-3.6946218", 
            "no_available" : 0, 
            "address" : "Calle Orense n∫ 36", 
            "latitude" : "40.4548456", 
            "dock_bikes" : 9, 
            "id" : 141
        }, 
        {
            "activate" : 1, 
            "name" : "San Germ·n", 
            "reservations_count" : 1, 
            "light" : 2, 
            "total_bases" : 24, 
            "free_bases" : 13, 
            "number" : "155", 
            "longitude" : "-3.7009675", 
            "no_available" : 0, 
            "address" : "Calle del General Yag¸e n∫ 57", 
            "latitude" : "40.4572824", 
            "dock_bikes" : 10, 
            "id" : 139
        }, 
        {
            "activate" : 1, 
            "name" : "Sor ¡ngela de la Cruz", 
            "reservations_count" : 0, 
            "light" : 2, 
            "total_bases" : 24, 
            "free_bases" : 8, 
            "number" : "156", 
            "longitude" : "-3.6915330", 
            "no_available" : 0, 
            "address" : "Calle Sor ¡ngela de la Cruz n∫ 2", 
            "latitude" : "40.4592351", 
            "dock_bikes" : 15, 
            "id" : 140
        }, 
        {
            "activate" : 1, 
            "name" : "Castellana 164", 
            "reservations_count" : 0, 
            "light" : 2, 
            "total_bases" : 24, 
            "free_bases" : 11, 
            "number" : "157", 
            "longitude" : "-3.6894151", 
            "no_available" : 0, 
            "address" : "Paseo de la Castellana n∫ 164", 
            "latitude" : "40.4591366", 
            "dock_bikes" : 12, 
            "id" : 137
        }, 
        {
            "activate" : 1, 
            "name" : "Alberto Alcocer", 
            "reservations_count" : 0, 
            "light" : 2, 
            "total_bases" : 24, 
            "free_bases" : 14, 
            "number" : "158", 
            "longitude" : "-3.6847150", 
            "no_available" : 0, 
            "address" : "Avenida de Alberto Alcocer n∫ 22", 
            "latitude" : "40.4585318", 
            "dock_bikes" : 8, 
            "id" : 138
        }, 
        {
            "activate" : 1, 
            "name" : "Paseo de la Habana 63", 
            "reservations_count" : 0, 
            "light" : 0, 
            "total_bases" : 24, 
            "free_bases" : 19, 
            "number" : "159", 
            "longitude" : "-3.6835926", 
            "no_available" : 0, 
            "address" : "Paseo de la Habana n∫ 63", 
            "latitude" : "40.4543852", 
            "dock_bikes" : 5, 
            "id" : 173
        }, 
        {
            "activate" : 1, 
            "name" : "Colombia", 
            "reservations_count" : 0, 
            "light" : 0, 
            "total_bases" : 24, 
            "free_bases" : 16, 
            "number" : "160", 
            "longitude" : "-3.6763439", 
            "no_available" : 0, 
            "address" : "Calle Colombia n∫ 7", 
            "latitude" : "40.4572466", 
            "dock_bikes" : 8, 
            "id" : 172
        }, 
        {
            "activate" : 1, 
            "name" : "Paseo de la Florida", 
            "reservations_count" : 0, 
            "light" : 2, 
            "total_bases" : 24, 
            "free_bases" : 11, 
            "number" : "161", 
            "longitude" : "-3.7218482", 
            "no_available" : 0, 
            "address" : "Paseo de la Florida n∫ 8", 
            "latitude" : "40.4220812", 
            "dock_bikes" : 13, 
            "id" : 132
        }, 
        {
            "activate" : 1, 
            "name" : "Metro Pir·mides", 
            "reservations_count" : 0, 
            "light" : 2, 
            "total_bases" : 24, 
            "free_bases" : 14, 
            "number" : "162", 
            "longitude" : "-3.7108108", 
            "no_available" : 0, 
            "address" : "Paseo de los Olmos n∫ 28", 
            "latitude" : "40.4034076", 
            "dock_bikes" : 9, 
            "id" : 133
        }, 
        {
            "activate" : 1, 
            "name" : "Paseo de la Esperanza", 
            "reservations_count" : 0, 
            "light" : 0, 
            "total_bases" : 21, 
            "free_bases" : 15, 
            "number" : "163", 
            "longitude" : "-3.7064516", 
            "no_available" : 0, 
            "address" : "Paseo de la Esperanza n∫ 2", 
            "latitude" : "40.4035988", 
            "dock_bikes" : 5, 
            "id" : 134
        }, 
        {
            "activate" : 1, 
            "name" : "Paseo de las Delicias", 
            "reservations_count" : 0, 
            "light" : 2, 
            "total_bases" : 24, 
            "free_bases" : 14, 
            "number" : "164", 
            "longitude" : "-3.6945025", 
            "no_available" : 0, 
            "address" : "Paseo de las Delicias n∫ 92-94", 
            "latitude" : "40.3972616", 
            "dock_bikes" : 10, 
            "id" : 136
        }, 
        {
            "activate" : 1, 
            "name" : "Entrada Matadero", 
            "reservations_count" : 0, 
            "light" : 2, 
            "total_bases" : 24, 
            "free_bases" : 16, 
            "number" : "165", 
            "longitude" : "-3.6971829", 
            "no_available" : 0, 
            "address" : "Paseo de la Chopera n∫ 14", 
            "latitude" : "40.3919385", 
            "dock_bikes" : 8, 
            "id" : 135
        }, 
        {
            "activate" : 1, 
            "name" : "Segovia 26", 
            "reservations_count" : 0, 
            "light" : 2, 
            "total_bases" : 24, 
            "free_bases" : 14, 
            "number" : "166", 
            "longitude" : "-3.7135833", 
            "no_available" : 0, 
            "address" : "Calle Segovia, 26", 
            "latitude" : "40.4138333", 
            "dock_bikes" : 10, 
            "id" : 174
        }, 
        {
            "activate" : 1, 
            "name" : "Segovia 45", 
            "reservations_count" : 0, 
            "light" : 3, 
            "total_bases" : 24, 
            "free_bases" : 7, 
            "number" : "167", 
            "longitude" : "-3.717487", 
            "no_available" : 1, 
            "address" : "Calle Segovia, 45", 
            "latitude" : "40.413736", 
            "dock_bikes" : 87, 
            "id" : 175
        }
    ]
}